Id,cl_b[sec],cl_e[sec],label,clipFile,au_b[sec],au_e[sec],audioFile,posix_b_i,lat[deg],lon[deg],depth[m],heading[deg],declination[deg],roll[deg],pitch[deg],state,duration[usec],low_i,high_i,low_sec,high_sec,energy[%],SNR[dB],Fp[kHz],Fc[kHz],begin_3dB_BW[kHz],-3dB_BW[kHz],begin_10dB_BW[kHz],-10dB_BW[kHz],RMS[kHz],Qrms,Fs[Hz],energy_per[%],energy_0_25,energy_25_50,energy_50_75,energy_75_100,energy_100_125,energy_125_150,energy_150_175,energy_175_200,energy_200_256,ccorr,slope_max_wvd,date,time,time
1,0.000000,0.001860,BWC-037-1@00:02.586,bwc_clicks.clips.wav,2.586199,2.588059,OBS-827.1.20230527T012059Z.wav,1685150459.000000,28.016433,-16.027850,596.500000,48.480000,-4.000000,1.480000,26.140000,117,1863.000000,NaN,NaN,NaN,NaN,100.000000,-1.558777,41.200000,46.556280,19.600000,22.000000,11.200000,44.800000,36.601222,1.271987,512000.000000,100.000000,0.180346,0.718744,0.098178,0.000000,0.000000,0.000000,0.002732,0.000000,0.000000,0.809076,0.084683,27-05-2023,00:02.586,00:02.586
2,0.001862,0.003982,BWC-037-2@00:05.064,bwc_clicks.clips.wav,5.064480,5.066600,OBS-827.1.20230527T012059Z.wav,1685150459.001862,28.016433,-16.027850,596.499693,48.479933,-4.000000,1.480141,26.139993,117,707.000000,165,526,1685150459.002184,1685150459.002889,79.872018,7.116441,32.400000,37.057168,28.000000,12.400000,18.800000,26.400000,18.428476,2.010864,512000.000000,79.872018,0.039011,0.960989,0.000000,0.000000,0.000000,0.000000,0.000000,0.000000,0.000000,0.978391,0.080037,27-05-2023,00:05.064,00:05.064
3,0.003984,0.005768,BWC-037-3@00:05.242,bwc_clicks.clips.wav,5.241536,5.243320,OBS-827.1.20230527T012059Z.wav,1685150459.003984,28.016433,-16.027850,596.499343,48.479857,-4.000000,1.480301,26.139986,117,686.000000,182,532,1685150459.004339,1685150459.005023,82.037145,7.427228,31.200000,34.788940,27.200000,9.200000,13.600000,29.600000,21.855058,1.591803,512000.000000,82.037145,0.110700,0.889300,0.000000,0.000000,0.000000,0.000000,0.000000,0.000000,0.000000,0.971600,0.080150,27-05-2023,00:05.242,00:05.242
4,0.005770,0.007770,BWC-037-4@00:05.444,bwc_clicks.clips.wav,5.444000,5.446000,OBS-827.1.20230527T012059Z.wav,1685150459.005770,28.016433,-16.027850,596.499048,48.479792,-4.000000,1.480436,26.139980,117,830.000000,321,745,1685150459.006397,1685150459.007225,82.777537,6.445153,41.200000,40.189980,30.800000,15.200000,18.800000,30.800000,19.338992,2.078184,512000.000000,82.777537,0.035058,0.964942,0.000000,0.000000,0.000000,0.000000,0.000000,0.000000,0.000000,0.986412,0.089030,27-05-2023,00:05.444,00:05.444
5,0.007772,0.009921,BWC-037-5@00:05.811,bwc_clicks.clips.wav,5.811131,5.813280,OBS-827.1.20230527T012059Z.wav,1685150459.007772,28.016433,-16.027850,596.498718,48.479720,-4.000000,1.480587,26.139973,117,879.000000,326,775,1685150459.008409,1685150459.009285,92.588870,11.667446,41.600000,42.442819,38.400000,8.000000,30.000000,23.200000,12.704649,3.340731,512000.000000,92.588870,0.000000,0.927785,0.072215,0.000000,0.000000,0.000000,0.000000,0.000000,0.000000,0.989552,0.094078,27-05-2023,00:05.811,00:05.811
6,0.009923,0.011773,BWC-037-6@00:05.983,bwc_clicks.clips.wav,5.983422,5.985272,OBS-827.1.20230527T012059Z.wav,1685150459.009923,28.016433,-16.027850,596.498363,48.479643,-4.000000,1.480749,26.139965,117,889.000000,149,603,1685150459.010214,1685150459.011101,95.283151,12.489276,43.200000,42.621438,32.400000,13.200000,19.200000,36.000000,14.291756,2.982239,512000.000000,95.283151,0.012093,0.879327,0.108580,0.000000,0.000000,0.000000,0.000000,0.000000,0.000000,0.990545,0.094997,27-05-2023,00:05.983,00:05.983
7,0.011775,0.013989,BWC-037-7@00:06.185,bwc_clicks.clips.wav,6.185489,6.187703,OBS-827.1.20230527T012059Z.wav,1685150459.011775,28.016433,-16.027850,596.498057,48.479576,-4.000000,1.480889,26.139959,117,979.000000,159,659,1685150459.012085,1685150459.013062,91.516507,10.863206,40.800000,39.588270,31.200000,13.600000,19.200000,31.200000,13.862217,2.855840,512000.000000,91.516507,0.023325,0.945079,0.031596,0.000000,0.000000,0.000000,0.000000,0.000000,0.000000,0.991575,0.105177,27-05-2023,00:06.185,00:06.185
8,0.013991,0.015504,BWC-037-8@00:07.429,bwc_clicks.clips.wav,7.429478,7.430991,OBS-827.1.20230527T012059Z.wav,1685150459.013991,28.016433,-16.027850,596.497692,48.479496,-4.000000,1.481056,26.139951,117,957.000000,146,635,1685150459.014276,1685150459.015231,73.284900,-2.332556,19.200000,67.729985,18.800000,37.200000,12.800000,57.600000,50.793885,1.333428,512000.000000,73.284900,0.228069,0.275517,0.411625,0.008467,0.031372,0.013353,0.028860,0.002738,0.000000,0.995358,0.107605,27-05-2023,00:07.429,00:07.429
9,0.015506,0.017496,BWC-037-9@00:07.606,bwc_clicks.clips.wav,7.606431,7.608421,OBS-827.1.20230527T012059Z.wav,1685150459.015506,28.016433,-16.027850,596.497442,48.479442,-4.000000,1.481171,26.139946,117,334.000000,163,333,1685150459.015824,1685150459.016156,23.235133,-3.585595,40.000000,72.753386,37.600000,4.800000,16.000000,60.000000,57.076697,1.274660,512000.000000,23.235133,0.201632,0.572186,0.105068,0.019019,0.030979,0.012032,0.050741,0.000000,0.008343,0.522762,0.023799,27-05-2023,00:07.606,00:07.606
10,0.017498,0.019703,BWC-037-10@00:08.118,bwc_clicks.clips.wav,8.118054,8.120259,OBS-827.1.20230527T012059Z.wav,1685150459.017498,28.016433,-16.027850,596.497113,48.479370,-4.000000,1.481321,26.139939,117,1035.000000,204,733,1685150459.017896,1685150459.018929,95.008662,12.760768,44.400000,42.026741,36.800000,10.000000,27.600000,26.800000,12.383173,3.393859,512000.000000,95.008662,0.008266,0.929203,0.062531,0.000000,0.000000,0.000000,0.000000,0.000000,0.000000,0.994051,0.097369,27-05-2023,00:08.118,00:08.118
11,0.019705,0.021873,BWC-037-11@00:08.290,bwc_clicks.clips.wav,8.289832,8.292000,OBS-827.1.20230527T012059Z.wav,1685150459.019705,28.016433,-16.027850,596.496749,48.479291,-4.000000,1.481488,26.139931,117,1035.000000,167,696,1685150459.020031,1685150459.021064,95.133536,12.561023,41.600000,42.787852,38.000000,9.200000,28.400000,25.600000,13.295456,3.218231,512000.000000,95.133536,0.006653,0.920263,0.073083,0.000000,0.000000,0.000000,0.000000,0.000000,0.000000,0.992915,0.091482,27-05-2023,00:08.290,00:08.290
12,0.021874,0.023874,BWC-037-12@00:08.546,bwc_clicks.clips.wav,8.546000,8.548000,OBS-827.1.20230527T012059Z.wav,1685150459.021874,28.016433,-16.027850,596.496391,48.479213,-4.000000,1.481652,26.139923,117,445.000000,323,550,1685150459.022505,1685150459.022949,50.330737,2.098329,34.000000,42.330792,30.800000,8.800000,26.000000,16.400000,29.655266,1.427429,512000.000000,50.330737,0.036943,0.963057,0.000000,0.000000,0.000000,0.000000,0.000000,0.000000,0.000000,0.832854,0.047886,27-05-2023,00:08.546,00:08.546
13,0.023876,0.025828,BWC-037-13@00:08.677,bwc_clicks.clips.wav,8.676784,8.678736,OBS-827.1.20230527T012059Z.wav,1685150459.023876,28.016433,-16.027850,596.496060,48.479140,-4.000000,1.481803,26.139916,117,516.000000,192,455,1685150459.024251,1685150459.024765,50.895567,0.943361,34.400000,45.597344,31.200000,7.200000,16.000000,26.400000,37.851507,1.204637,512000.000000,50.895567,0.137697,0.852339,0.000000,0.000000,0.009964,0.000000,0.000000,0.000000,0.000000,0.905948,0.048129,27-05-2023,00:08.677,00:08.677
14,0.025830,0.027830,BWC-037-14@00:14.536,bwc_clicks.clips.wav,14.536000,14.538000,OBS-827.1.20230527T012059Z.wav,1685150459.025831,28.016433,-16.027850,596.495738,48.479070,-4.000000,1.481950,26.139910,117,1037.000000,174,704,1685150459.026170,1685150459.027205,92.948409,9.830548,41.200000,43.616566,38.800000,8.400000,31.200000,22.400000,14.642493,2.978766,512000.000000,92.948409,0.008208,0.914354,0.077438,0.000000,0.000000,0.000000,0.000000,0.000000,0.000000,0.989534,0.089057,27-05-2023,00:14.536,00:14.536
15,0.027832,0.030035,BWC-037-15@00:14.711,bwc_clicks.clips.wav,14.710797,14.713000,OBS-827.1.20230527T012059Z.wav,1685150459.027832,28.016433,-16.027850,596.495408,48.478998,-4.000000,1.482101,26.139903,117,1020.000000,163,684,1685150459.028151,1685150459.029168,93.473026,11.203736,43.200000,43.924119,39.200000,7.600000,30.800000,24.800000,13.635024,3.221419,512000.000000,93.473026,0.000000,0.912905,0.087095,0.000000,0.000000,0.000000,0.000000,0.000000,0.000000,0.988216,0.086711,27-05-2023,00:14.711,00:14.711
16,0.030037,0.032186,BWC-037-16@00:14.884,bwc_clicks.clips.wav,14.884424,14.886573,OBS-827.1.20230527T012059Z.wav,1685150459.030037,28.016433,-16.027850,596.495044,48.478919,-4.000000,1.482268,26.139895,117,834.000000,186,612,1685150459.030401,1685150459.031233,85.069502,7.783633,40.800000,42.289771,37.600000,7.600000,19.600000,29.600000,17.588409,2.404411,512000.000000,85.069502,0.014047,0.985953,0.000000,0.000000,0.000000,0.000000,0.000000,0.000000,0.000000,0.984375,0.068755,27-05-2023,00:14.884,00:14.884
17,0.032188,0.033701,BWC-037-17@00:15.181,bwc_clicks.clips.wav,15.180714,15.182227,OBS-827.1.20230527T012059Z.wav,1685150459.032188,28.016433,-16.027850,596.494689,48.478841,-4.000000,1.482430,26.139887,117,436.000000,224,446,1685150459.032626,1685150459.033060,42.231445,-2.230492,17.600000,47.951777,15.600000,21.600000,7.600000,44.400000,50.549543,0.948610,512000.000000,42.231445,0.584657,0.360207,0.031389,0.005902,0.000000,0.017845,0.000000,0.000000,0.000000,0.275265,0.029101,27-05-2023,00:15.181,00:15.181
18,0.033703,0.035703,BWC-037-18@00:15.343,bwc_clicks.clips.wav,15.343000,15.345000,OBS-827.1.20230527T012059Z.wav,1685150459.033703,28.016433,-16.027850,596.494439,48.478787,-4.000000,1.482545,26.139882,117,162.000000,461,543,1685150459.034604,1685150459.034764,11.771974,-2.576845,38.000000,52.288416,33.200000,9.200000,10.400000,36.000000,45.330695,1.153488,512000.000000,11.771974,0.203758,0.760001,0.000000,0.017869,0.018372,0.000000,0.000000,0.000000,0.000000,0.213201,-0.047512,27-05-2023,00:15.343,00:15.343
19,0.035705,0.037648,BWC-037-19@00:15.564,bwc_clicks.clips.wav,15.564443,15.566386,OBS-827.1.20230527T012059Z.wav,1685150459.035705,28.016433,-16.027850,596.494109,48.478715,-4.000000,1.482696,26.139875,117,438.000000,109,332,1685150459.035918,1685150459.036354,22.246162,-7.158489,20.000000,79.056565,19.200000,2.000000,13.200000,117.200000,64.447158,1.226688,512000.000000,22.246162,0.390896,0.183188,0.069172,0.134281,0.090278,0.066021,0.012170,0.053994,0.000000,0.930361,2.070111,27-05-2023,00:15.564,00:15.564
20,0.037650,0.039574,BWC-037-20@00:23.058,bwc_clicks.clips.wav,23.057882,23.059806,OBS-827.1.20230527T012059Z.wav,1685150459.037650,28.016433,-16.027850,596.493788,48.478645,-4.000000,1.482843,26.139868,117,623.000000,81,399,1685150459.037808,1685150459.038429,65.170077,3.744985,32.400000,37.242630,29.600000,6.800000,18.800000,21.600000,28.262593,1.317736,512000.000000,65.170077,0.175610,0.824390,0.000000,0.000000,0.000000,0.000000,0.000000,0.000000,0.000000,0.980935,0.085935,27-05-2023,00:23.058,00:23.058
21,0.039576,0.041547,BWC-037-21@00:23.237,bwc_clicks.clips.wav,23.236601,23.238572,OBS-827.1.20230527T012059Z.wav,1685150459.039576,28.016433,-16.027850,596.493470,48.478575,-4.000000,1.482988,26.139861,117,1973.000000,NaN,NaN,NaN,NaN,100.000000,-3.520360,19.600000,46.550099,19.200000,21.200000,10.800000,46.000000,38.225138,1.217788,512000.000000,100.000000,0.252249,0.620523,0.124465,0.000000,0.000000,0.002763,0.000000,0.000000,0.000000,0.284142,-0.123485,27-05-2023,00:23.237,00:23.237
22,0.041549,0.043549,BWC-037-22@00:23.494,bwc_clicks.clips.wav,23.494000,23.496000,OBS-827.1.20230527T012059Z.wav,1685150459.041549,28.016433,-16.027850,596.493144,48.478504,-4.000000,1.483137,26.139855,117,904.000000,120,582,1685150459.041783,1685150459.042686,87.543012,8.181797,40.400000,40.549488,31.600000,13.200000,18.800000,30.400000,18.223156,2.225163,512000.000000,87.543012,0.021641,0.975565,0.002795,0.000000,0.000000,0.000000,0.000000,0.000000,0.000000,0.990218,0.084097,27-05-2023,00:23.494,00:23.494
23,0.043551,0.045354,BWC-037-23@00:23.661,bwc_clicks.clips.wav,23.660840,23.662643,OBS-827.1.20230527T012059Z.wav,1685150459.043551,28.016433,-16.027850,596.492814,48.478432,-4.000000,1.483288,26.139848,117,832.000000,120,545,1685150459.043785,1685150459.044616,83.140230,5.216283,41.200000,42.650632,31.600000,12.400000,18.800000,30.400000,26.092629,1.634585,512000.000000,83.140230,0.042804,0.957196,0.000000,0.000000,0.000000,0.000000,0.000000,0.000000,0.000000,0.982540,0.079941,27-05-2023,00:23.661,00:23.661
24,0.045356,0.047374,BWC-037-24@00:55.904,bwc_clicks.clips.wav,55.903653,55.905671,OBS-827.1.20230527T012059Z.wav,1685150459.045356,28.016433,-16.027850,596.492516,48.478367,-4.000000,1.483424,26.139841,117,1090.000000,57,614,1685150459.045467,1685150459.046555,79.465290,2.901219,45.200000,47.856282,19.600000,27.600000,18.800000,37.600000,29.712120,1.610665,512000.000000,79.465290,0.080544,0.827043,0.092413,0.000000,0.000000,0.000000,0.000000,0.000000,0.000000,0.880281,0.087621,27-05-2023,00:55.904,00:55.904
25,0.047376,0.049235,BWC-037-25@01:50.128,bwc_clicks.clips.wav,110.127885,110.129744,OBS-827.1.20230527T012059Z.wav,1685150459.047376,28.016433,-16.027850,596.492183,48.478294,-4.000000,1.483577,26.139834,117,566.000000,101,390,1685150459.047573,1685150459.048138,65.137282,2.677436,43.600000,43.540808,38.000000,7.600000,28.800000,18.400000,21.932402,1.985228,512000.000000,65.137282,0.000000,1.000000,0.000000,0.000000,0.000000,0.000000,0.000000,0.000000,0.000000,0.945695,0.061249,27-05-2023,01:50.128,01:50.128
26,0.049237,0.051031,BWC-037-26@01:51.179,bwc_clicks.clips.wav,111.179495,111.181289,OBS-827.1.20230527T012059Z.wav,1685150459.049237,28.016433,-16.027850,596.491876,48.478227,-4.000000,1.483717,26.139828,117,543.000000,437,714,1685150459.050090,1685150459.050631,38.813104,-1.808181,41.200000,60.149341,39.600000,14.000000,38.800000,21.600000,39.869282,1.508664,512000.000000,38.813104,0.029309,0.707838,0.262853,0.000000,0.000000,0.000000,0.000000,0.000000,0.000000,0.310221,-0.058309,27-05-2023,01:51.179,01:51.179
27,0.051033,0.053033,BWC-037-27@01:51.340,bwc_clicks.clips.wav,111.340000,111.342000,OBS-827.1.20230527T012059Z.wav,1685150459.051033,28.016433,-16.027850,596.491580,48.478163,-4.000000,1.483853,26.139821,117,357.000000,540,722,1685150459.052088,1685150459.052443,32.267086,-1.089330,51.600000,47.541159,16.400000,37.200000,9.600000,46.000000,39.123471,1.215157,512000.000000,32.267086,0.353845,0.371339,0.274816,0.000000,0.000000,0.000000,0.000000,0.000000,0.000000,0.903261,-0.249522,27-05-2023,01:51.340,01:51.340
28,0.053035,0.054819,BWC-037-28@01:51.599,bwc_clicks.clips.wav,111.598550,111.600334,OBS-827.1.20230527T012059Z.wav,1685150459.053035,28.016433,-16.027850,596.491249,48.478091,-4.000000,1.484004,26.139814,117,258.000000,184,315,1685150459.053394,1685150459.053650,26.867918,-1.127141,30.800000,59.460510,28.000000,6.400000,26.000000,11.200000,55.621065,1.069029,512000.000000,26.867918,0.052991,0.887341,0.000000,0.000000,0.000000,0.000000,0.059669,0.000000,0.000000,0.479228,0.014364,27-05-2023,01:51.599,01:51.599
29,0.054821,0.056409,BWC-037-29@03:14.271,bwc_clicks.clips.wav,194.270563,194.272151,OBS-827.1.20230527T012059Z.wav,1685150459.054821,28.016433,-16.027850,596.490955,48.478026,-4.000000,1.484139,26.139808,117,420.000000,168,382,1685150459.055149,1685150459.055567,52.073895,2.389139,32.400000,42.204846,29.600000,6.000000,27.200000,10.800000,33.959877,1.242786,512000.000000,52.073895,0.031372,0.968628,0.000000,0.000000,0.000000,0.000000,0.000000,0.000000,0.000000,0.668288,0.027092,27-05-2023,03:14.271,03:14.271
30,0.056411,0.058382,BWC-037-30@03:14.524,bwc_clicks.clips.wav,194.524249,194.526220,OBS-827.1.20230527T012059Z.wav,1685150459.056411,28.016433,-16.027850,596.490692,48.477969,-4.000000,1.484259,26.139803,117,1973.000000,NaN,NaN,NaN,NaN,100.000000,-3.792923,19.200000,61.225101,19.200000,8.800000,13.600000,111.600000,52.864510,1.158151,512000.000000,100.000000,0.200573,0.652317,0.029005,0.024118,0.037297,0.034936,0.018821,0.002933,0.000000,0.996118,0.179595,27-05-2023,03:14.524,03:14.524
31,0.058384,0.060384,BWC-037-31@06:45.501,bwc_clicks.clips.wav,405.501000,405.503000,OBS-827.1.20230527T012059Z.wav,1685150459.058384,28.016433,-16.027850,596.490367,48.477898,-4.000000,1.484408,26.139796,117,2002.000000,NaN,NaN,NaN,NaN,100.000000,-2.017501,30.400000,60.120866,30.000000,21.600000,8.800000,169.600000,49.243452,1.220891,512000.000000,100.000000,0.127650,0.673432,0.117548,0.018836,0.018859,0.004436,0.029697,0.009541,0.000000,0.995181,0.163475,27-05-2023,06:45.501,06:45.501
32,0.060386,0.062338,BWC-037-32@06:45.648,bwc_clicks.clips.wav,405.647846,405.649798,OBS-827.1.20230527T012059Z.wav,1685150459.060385,28.016433,-16.027850,596.490036,48.477826,-4.000000,1.484559,26.139789,117,764.000000,198,588,1685150459.060772,1685150459.061534,67.551889,1.448758,44.000000,50.181398,41.200000,4.800000,20.800000,32.000000,33.140249,1.514213,512000.000000,67.551889,0.050743,0.913947,0.035310,0.000000,0.000000,0.000000,0.000000,0.000000,0.000000,0.928014,0.051423,27-05-2023,06:45.648,06:45.648
33,0.062339,0.064320,BWC-037-33@06:45.803,bwc_clicks.clips.wav,405.802759,405.804740,OBS-827.1.20230527T012059Z.wav,1685150459.062340,28.016433,-16.027850,596.489714,48.477756,-4.000000,1.484707,26.139782,117,680.000000,267,614,1685150459.062861,1685150459.063539,73.693317,4.956082,39.600000,44.576212,30.800000,14.000000,25.200000,22.800000,27.306949,1.632413,512000.000000,73.693317,0.003558,0.986881,0.009561,0.000000,0.000000,0.000000,0.000000,0.000000,0.000000,0.974031,0.068953,27-05-2023,06:45.803,06:45.803
34,0.064322,0.066322,BWC-037-34@06:45.959,bwc_clicks.clips.wav,405.959000,405.961000,OBS-827.1.20230527T012059Z.wav,1685150459.064322,28.016433,-16.027850,596.489387,48.477684,-4.000000,1.484856,26.139775,117,693.000000,200,554,1685150459.064713,1685150459.065404,80.970232,7.428975,42.000000,44.246106,36.000000,8.400000,25.600000,26.400000,23.911887,1.850381,512000.000000,80.970232,0.000000,0.960765,0.039235,0.000000,0.000000,0.000000,0.000000,0.000000,0.000000,0.981471,0.088080,27-05-2023,06:45.959,06:45.959
35,0.066324,0.067940,BWC-037-35@06:46.126,bwc_clicks.clips.wav,406.125816,406.127432,OBS-827.1.20230527T012059Z.wav,1685150459.066324,28.016433,-16.027850,596.489056,48.477612,-4.000000,1.485007,26.139768,117,713.000000,143,507,1685150459.066604,1685150459.067315,86.302381,7.402936,40.000000,43.423877,35.600000,9.200000,27.600000,25.600000,21.762181,1.995383,512000.000000,86.302381,0.000000,0.940898,0.059102,0.000000,0.000000,0.000000,0.000000,0.000000,0.000000,0.981715,0.096729,27-05-2023,06:46.126,06:46.126
36,0.067942,0.069857,BWC-037-36@06:46.296,bwc_clicks.clips.wav,406.295893,406.297808,OBS-827.1.20230527T012059Z.wav,1685150459.067942,28.016433,-16.027850,596.488790,48.477554,-4.000000,1.485130,26.139762,117,629.000000,145,466,1685150459.068226,1685150459.068852,80.700049,8.280105,39.600000,39.957164,27.600000,16.000000,25.600000,23.200000,19.351003,2.064863,512000.000000,80.700049,0.000000,1.000000,0.000000,0.000000,0.000000,0.000000,0.000000,0.000000,0.000000,0.982430,0.097109,27-05-2023,06:46.296,06:46.296
37,0.069859,0.071830,BWC-037-37@06:46.507,bwc_clicks.clips.wav,406.506882,406.508853,OBS-827.1.20230527T012059Z.wav,1685150459.069859,28.016433,-16.027850,596.488473,48.477485,-4.000000,1.485274,26.139755,117,664.000000,138,477,1685150459.070129,1685150459.070791,73.287735,5.890138,40.000000,41.187764,37.200000,6.400000,26.000000,24.800000,18.203307,2.262653,512000.000000,73.287735,0.004333,0.966360,0.029307,0.000000,0.000000,0.000000,0.000000,0.000000,0.000000,0.984536,0.098764,27-05-2023,06:46.507,06:46.507
38,0.071832,0.073832,BWC-037-38@07:28.026,bwc_clicks.clips.wav,448.026000,448.028000,OBS-827.1.20230527T012059Z.wav,1685150459.071832,28.016433,-16.027850,596.488148,48.477414,-4.000000,1.485423,26.139749,117,492.000000,480,731,1685150459.072770,1685150459.073260,33.549150,-2.104020,42.400000,64.262180,40.400000,3.600000,38.800000,12.000000,46.065093,1.395030,512000.000000,33.549150,0.058723,0.752713,0.058867,0.025361,0.052031,0.029406,0.022899,0.000000,0.000000,0.139142,0.007117,27-05-2023,07:28.026,07:28.026
39,0.073834,0.075908,BWC-037-39@07:28.261,bwc_clicks.clips.wav,448.260663,448.262737,OBS-827.1.20230527T012059Z.wav,1685150459.073834,28.016433,-16.027850,596.487817,48.477342,-4.000000,1.485574,26.139742,117,691.000000,189,542,1685150459.074203,1685150459.074893,53.850578,-0.497768,41.600000,61.140802,38.800000,6.800000,16.800000,30.000000,46.818754,1.305904,512000.000000,53.850578,0.025990,0.926621,0.000000,0.000000,0.000000,0.004289,0.043100,0.000000,0.000000,0.954389,0.040997,27-05-2023,07:28.261,07:28.261
40,0.075910,0.077713,BWC-037-40@07:28.362,bwc_clicks.clips.wav,448.361556,448.363359,OBS-827.1.20230527T012059Z.wav,1685150459.075910,28.016433,-16.027850,596.487475,48.477267,-4.000000,1.485731,26.139734,117,605.000000,151,460,1685150459.076205,1685150459.076809,63.391293,3.432611,34.800000,41.072782,32.400000,4.800000,20.400000,21.600000,31.460543,1.305533,512000.000000,63.391293,0.042636,0.957364,0.000000,0.000000,0.000000,0.000000,0.000000,0.000000,0.000000,0.933023,0.076339,27-05-2023,07:28.362,07:28.362
41,0.077715,0.079715,BWC-037-41@07:28.438,bwc_clicks.clips.wav,448.438000,448.440000,OBS-827.1.20230527T012059Z.wav,1685150459.077715,28.016433,-16.027850,596.487177,48.477202,-4.000000,1.485867,26.139728,117,775.000000,166,562,1685150459.078039,1685150459.078813,81.401346,6.731743,39.200000,44.835963,29.600000,14.000000,26.400000,26.000000,29.217852,1.534540,512000.000000,81.401346,0.018507,0.953439,0.028054,0.000000,0.000000,0.000000,0.000000,0.000000,0.000000,0.988950,0.104174,27-05-2023,07:28.438,07:28.438
42,0.079717,0.081717,BWC-037-42@07:28.518,bwc_clicks.clips.wav,448.518000,448.520000,OBS-827.1.20230527T012059Z.wav,1685150459.079717,28.016433,-16.027850,596.486847,48.477130,-4.000000,1.486019,26.139721,117,750.000000,276,659,1685150459.080256,1685150459.081004,80.867940,6.095900,42.400000,51.313234,39.200000,15.200000,30.400000,30.400000,27.340531,1.876819,512000.000000,80.867940,0.000000,0.684034,0.315966,0.000000,0.000000,0.000000,0.000000,0.000000,0.000000,0.991541,0.111477,27-05-2023,07:28.518,07:28.518
43,0.081719,0.083663,BWC-037-43@07:28.600,bwc_clicks.clips.wav,448.599583,448.601527,OBS-827.1.20230527T012059Z.wav,1685150459.081719,28.016433,-16.027850,596.486516,48.477058,-4.000000,1.486170,26.139714,117,676.000000,163,508,1685150459.082037,1685150459.082711,82.306133,7.818521,41.600000,45.089120,35.200000,10.000000,27.200000,27.600000,21.944221,2.054715,512000.000000,82.306133,0.000000,0.885655,0.114345,0.000000,0.000000,0.000000,0.000000,0.000000,0.000000,0.986547,0.112852,27-05-2023,07:28.600,07:28.600
44,0.083665,0.085665,BWC-037-44@07:28.691,bwc_clicks.clips.wav,448.691000,448.693000,OBS-827.1.20230527T012059Z.wav,1685150459.083665,28.016433,-16.027850,596.486195,48.476988,-4.000000,1.486317,26.139707,117,627.000000,137,457,1685150459.083932,1685150459.084558,79.799043,7.693679,41.600000,43.565914,35.200000,9.600000,28.000000,26.400000,18.574662,2.345449,512000.000000,79.799043,0.000000,0.918281,0.081719,0.000000,0.000000,0.000000,0.000000,0.000000,0.000000,0.977632,0.105730,27-05-2023,07:28.691,07:28.691
45,0.085667,0.087639,BWC-037-45@07:28.787,bwc_clicks.clips.wav,448.786692,448.788664,OBS-827.1.20230527T012059Z.wav,1685150459.085667,28.016433,-16.027850,596.485865,48.476916,-4.000000,1.486468,26.139700,117,654.000000,189,523,1685150459.086036,1685150459.086688,80.840510,7.920259,37.200000,38.915744,29.200000,13.600000,22.800000,26.800000,19.841643,1.961317,512000.000000,80.840510,0.035028,0.961315,0.003657,0.000000,0.000000,0.000000,0.000000,0.000000,0.000000,0.982996,0.108923,27-05-2023,07:28.787,07:28.787
46,0.087641,0.089453,BWC-037-46@07:28.877,bwc_clicks.clips.wav,448.876739,448.878551,OBS-827.1.20230527T012059Z.wav,1685150459.087641,28.016433,-16.027850,596.485539,48.476845,-4.000000,1.486617,26.139693,117,688.000000,287,638,1685150459.088201,1685150459.088887,85.156110,8.096535,40.800000,46.008683,35.200000,12.000000,27.600000,30.400000,20.599999,2.233431,512000.000000,85.156110,0.000000,0.838417,0.161583,0.000000,0.000000,0.000000,0.000000,0.000000,0.000000,0.987110,0.121472,27-05-2023,07:28.877,07:28.877
47,0.089455,0.091455,BWC-037-47@07:28.974,bwc_clicks.clips.wav,448.974000,448.976000,OBS-827.1.20230527T012059Z.wav,1685150459.089455,28.016433,-16.027850,596.485240,48.476780,-4.000000,1.486754,26.139687,117,643.000000,343,671,1685150459.090125,1685150459.090765,87.716099,11.086465,40.800000,42.890630,36.000000,8.000000,28.000000,26.800000,19.056910,2.250660,512000.000000,87.716099,0.000000,0.927112,0.072888,0.000000,0.000000,0.000000,0.000000,0.000000,0.000000,0.974854,0.111841,27-05-2023,07:28.974,07:28.974
48,0.091457,0.093457,BWC-037-48@07:30.195,bwc_clicks.clips.wav,450.195000,450.197000,OBS-827.1.20230527T012059Z.wav,1685150459.091457,28.016433,-16.027850,596.484910,48.476708,-4.000000,1.486905,26.139680,117,2002.000000,NaN,NaN,NaN,NaN,100.000000,1.508862,41.600000,50.628532,29.600000,22.800000,24.400000,33.600000,34.509560,1.467087,512000.000000,100.000000,0.020700,0.776828,0.198181,0.000000,0.000000,0.000000,0.004291,0.000000,0.000000,0.998309,0.210761,27-05-2023,07:30.195,07:30.195
49,0.093459,0.094963,BWC-037-49@07:30.314,bwc_clicks.clips.wav,450.313601,450.315105,OBS-827.1.20230527T012059Z.wav,1685150459.093459,28.016433,-16.027850,596.484579,48.476635,-4.000000,1.487056,26.139673,117,744.000000,331,711,1685150459.094105,1685150459.094847,88.945866,7.806049,38.400000,42.620719,34.800000,8.800000,28.000000,22.400000,22.109955,1.927671,512000.000000,88.945866,0.000000,0.985930,0.014070,0.000000,0.000000,0.000000,0.000000,0.000000,0.000000,0.973465,0.085799,27-05-2023,07:30.314,07:30.314
50,0.094965,0.096544,BWC-037-50@07:30.423,bwc_clicks.clips.wav,450.422660,450.424239,OBS-827.1.20230527T012059Z.wav,1685150459.094965,28.016433,-16.027850,596.484331,48.476581,-4.000000,1.487170,26.139668,117,820.000000,100,519,1685150459.095160,1685150459.095978,88.240304,7.013594,40.800000,44.713956,35.200000,8.800000,28.400000,27.600000,23.430414,1.908372,512000.000000,88.240304,0.000000,0.924687,0.075313,0.000000,0.000000,0.000000,0.000000,0.000000,0.000000,0.984326,0.103278,27-05-2023,07:30.423,07:30.423
51,0.096546,0.098546,BWC-037-51@07:30.535,bwc_clicks.clips.wav,450.535000,450.537000,OBS-827.1.20230527T012059Z.wav,1685150459.096546,28.016433,-16.027850,596.484070,48.476524,-4.000000,1.487289,26.139662,117,691.000000,341,694,1685150459.097212,1685150459.097901,80.142662,7.644324,36.400000,40.303857,31.200000,12.400000,21.200000,29.200000,20.293424,1.986055,512000.000000,80.142662,0.039119,0.948755,0.012126,0.000000,0.000000,0.000000,0.000000,0.000000,0.000000,0.970675,0.077420,27-05-2023,07:30.535,07:30.535
52,0.098548,0.100416,BWC-037-52@07:30.649,bwc_clicks.clips.wav,450.649439,450.651307,OBS-827.1.20230527T012059Z.wav,1685150459.098548,28.016433,-16.027850,596.483740,48.476452,-4.000000,1.487440,26.139655,117,721.000000,164,532,1685150459.098868,1685150459.099587,81.103220,7.060269,40.400000,42.749381,34.400000,10.000000,28.000000,23.200000,22.977765,1.860467,512000.000000,81.103220,0.000000,0.979726,0.020274,0.000000,0.000000,0.000000,0.000000,0.000000,0.000000,0.970923,0.084478,27-05-2023,07:30.649,07:30.649
53,0.100418,0.102277,BWC-037-53@07:30.769,bwc_clicks.clips.wav,450.768513,450.770372,OBS-827.1.20230527T012059Z.wav,1685150459.100417,28.016434,-16.027850,596.483431,48.476385,-4.000000,1.487582,26.139649,117,674.000000,148,492,1685150459.100706,1685150459.101378,80.717235,7.050063,39.200000,42.758900,36.400000,6.800000,28.000000,20.400000,24.164156,1.769518,512000.000000,80.717235,0.006603,0.989818,0.003579,0.000000,0.000000,0.000000,0.000000,0.000000,0.000000,0.973076,0.079991,27-05-2023,07:30.769,07:30.769
54,0.102279,0.104279,BWC-037-54@07:30.884,bwc_clicks.clips.wav,450.884000,450.886000,OBS-827.1.20230527T012059Z.wav,1685150459.102278,28.016434,-16.027850,596.483124,48.476318,-4.000000,1.487722,26.139642,117,820.000000,342,761,1685150459.102947,1685150459.103765,80.326047,5.819698,41.200000,49.293549,36.400000,9.200000,29.600000,28.800000,28.240461,1.745494,512000.000000,80.326047,0.000000,0.868376,0.131624,0.000000,0.000000,0.000000,0.000000,0.000000,0.000000,0.985646,0.094607,27-05-2023,07:30.884,07:30.884
55,0.104280,0.106280,BWC-037-55@07:30.996,bwc_clicks.clips.wav,450.996000,450.998000,OBS-827.1.20230527T012059Z.wav,1685150459.104280,28.016434,-16.027850,596.482794,48.476246,-4.000000,1.487873,26.139635,117,994.000000,185,693,1685150459.104642,1685150459.105634,80.803435,3.887312,42.800000,49.941040,36.400000,8.400000,30.800000,26.400000,28.431808,1.756520,512000.000000,80.803435,0.000000,0.845685,0.154315,0.000000,0.000000,0.000000,0.000000,0.000000,0.000000,0.991273,0.107892,27-05-2023,07:30.996,07:30.996
56,0.106282,0.108282,BWC-037-56@07:31.089,bwc_clicks.clips.wav,451.089000,451.091000,OBS-827.1.20230527T012059Z.wav,1685150459.106282,28.016434,-16.027850,596.482463,48.476174,-4.000000,1.488024,26.139628,117,758.000000,330,717,1685150459.106927,1685150459.107683,81.790638,7.108806,37.600000,44.166977,34.000000,9.600000,29.200000,20.800000,26.442288,1.670316,512000.000000,81.790638,0.006605,0.984383,0.009012,0.000000,0.000000,0.000000,0.000000,0.000000,0.000000,0.979114,0.075915,27-05-2023,07:31.089,07:31.089
57,0.108284,0.110012,BWC-037-57@07:31.178,bwc_clicks.clips.wav,451.178159,451.179887,OBS-827.1.20230527T012059Z.wav,1685150459.108284,28.016434,-16.027850,596.482133,48.476102,-4.000000,1.488175,26.139621,117,1730.000000,NaN,NaN,NaN,NaN,100.000000,2.981297,35.600000,45.243105,29.600000,14.800000,17.600000,37.600000,30.069588,1.504613,512000.000000,100.000000,0.008680,0.945124,0.046196,0.000000,0.000000,0.000000,0.000000,0.000000,0.000000,0.994225,0.174384,27-05-2023,07:31.178,07:31.178
58,0.110014,0.112079,BWC-037-58@07:31.348,bwc_clicks.clips.wav,451.347526,451.349591,OBS-827.1.20230527T012059Z.wav,1685150459.110014,28.016434,-16.027850,596.481848,48.476039,-4.000000,1.488306,26.139615,117,744.000000,213,593,1685150459.110430,1685150459.111172,80.850300,7.118723,42.400000,42.955088,35.200000,9.200000,30.000000,21.200000,19.355561,2.219263,512000.000000,80.850300,0.000000,0.978289,0.021711,0.000000,0.000000,0.000000,0.000000,0.000000,0.000000,0.968355,0.069577,27-05-2023,07:31.348,07:31.348
59,0.112081,0.114081,BWC-037-59@07:31.423,bwc_clicks.clips.wav,451.423000,451.425000,OBS-827.1.20230527T012059Z.wav,1685150459.112081,28.016434,-16.027850,596.481507,48.475965,-4.000000,1.488462,26.139608,117,582.000000,189,486,1685150459.112450,1685150459.113030,68.491312,4.169335,36.000000,40.095081,30.000000,10.400000,26.400000,16.800000,23.248581,1.724625,512000.000000,68.491312,0.000000,1.000000,0.000000,0.000000,0.000000,0.000000,0.000000,0.000000,0.000000,0.953643,0.056583,27-05-2023,07:31.423,07:31.423
60,0.114083,0.116083,BWC-037-60@07:31.499,bwc_clicks.clips.wav,451.499000,451.501000,OBS-827.1.20230527T012059Z.wav,1685150459.114083,28.016434,-16.027850,596.481176,48.475893,-4.000000,1.488613,26.139601,117,750.000000,202,585,1685150459.114478,1685150459.115226,85.617531,8.497832,41.200000,43.681588,35.600000,9.200000,30.000000,19.200000,21.086613,2.071532,512000.000000,85.617531,0.000000,0.980385,0.019615,0.000000,0.000000,0.000000,0.000000,0.000000,0.000000,0.975310,0.069016,27-05-2023,07:31.499,07:31.499
61,0.116085,0.118085,BWC-037-61@07:31.575,bwc_clicks.clips.wav,451.575000,451.577000,OBS-827.1.20230527T012059Z.wav,1685150459.116085,28.016434,-16.027850,596.480846,48.475821,-4.000000,1.488764,26.139594,117,857.000000,182,620,1685150459.116441,1685150459.117296,85.459460,7.647343,40.400000,44.653440,37.200000,7.200000,30.400000,20.800000,21.696073,2.058135,512000.000000,85.459460,0.000000,0.961030,0.038970,0.000000,0.000000,0.000000,0.000000,0.000000,0.000000,0.982812,0.081747,27-05-2023,07:31.575,07:31.575
62,0.118087,0.120087,BWC-037-62@07:31.650,bwc_clicks.clips.wav,451.650000,451.652000,OBS-827.1.20230527T012059Z.wav,1685150459.118087,28.016434,-16.027850,596.480516,48.475749,-4.000000,1.488916,26.139587,117,879.000000,207,656,1685150459.118491,1685150459.119368,83.521932,6.208386,41.200000,47.020343,37.600000,8.400000,30.400000,21.600000,25.503275,1.843698,512000.000000,83.521932,0.000000,0.921374,0.078626,0.000000,0.000000,0.000000,0.000000,0.000000,0.000000,0.987504,0.086548,27-05-2023,07:31.650,07:31.650
63,0.120089,0.121509,BWC-037-63@07:31.720,bwc_clicks.clips.wav,451.720118,451.721538,OBS-827.1.20230527T012059Z.wav,1685150459.120089,28.016434,-16.027850,596.480185,48.475677,-4.000000,1.489067,26.139580,117,732.000000,302,676,1685150459.120679,1685150459.121409,88.647505,6.575333,41.200000,45.606703,38.400000,6.400000,31.200000,20.800000,23.403324,1.948728,512000.000000,88.647505,0.003067,0.949736,0.047198,0.000000,0.000000,0.000000,0.000000,0.000000,0.000000,0.970275,0.072964,27-05-2023,07:31.720,07:31.720
64,0.121511,0.123511,BWC-037-64@07:31.792,bwc_clicks.clips.wav,451.792000,451.794000,OBS-827.1.20230527T012059Z.wav,1685150459.121511,28.016434,-16.027850,596.479951,48.475626,-4.000000,1.489174,26.139575,117,795.000000,307,713,1685150459.122111,1685150459.122904,80.610672,6.288053,41.200000,44.581931,31.600000,14.000000,27.600000,24.400000,26.586185,1.676883,512000.000000,80.610672,0.006392,0.973912,0.019695,0.000000,0.000000,0.000000,0.000000,0.000000,0.000000,0.985011,0.078732,27-05-2023,07:31.792,07:31.792
65,0.123513,0.125494,BWC-037-65@07:31.863,bwc_clicks.clips.wav,451.862783,451.864764,OBS-827.1.20230527T012059Z.wav,1685150459.123513,28.016434,-16.027850,596.479620,48.475554,-4.000000,1.489325,26.139568,117,770.000000,179,572,1685150459.123863,1685150459.124630,79.353229,6.172860,40.400000,45.220592,36.000000,8.400000,29.200000,20.800000,25.758198,1.755581,512000.000000,79.353229,0.000000,0.989751,0.010249,0.000000,0.000000,0.000000,0.000000,0.000000,0.000000,0.982984,0.077671,27-05-2023,07:31.863,07:31.863
66,0.125496,0.127430,BWC-037-66@07:31.934,bwc_clicks.clips.wav,451.933863,451.935797,OBS-827.1.20230527T012059Z.wav,1685150459.125496,28.016434,-16.027850,596.479293,48.475482,-4.000000,1.489475,26.139561,117,1938.000000,NaN,NaN,NaN,NaN,100.000000,-4.777920,39.200000,56.304780,37.600000,15.200000,12.400000,50.000000,39.311151,1.432285,512000.000000,100.000000,0.035133,0.713900,0.244904,0.004767,0.000000,0.000000,0.001297,0.000000,0.000000,0.995619,0.202236,27-05-2023,07:31.934,07:31.934
67,0.127432,0.129001,BWC-037-67@07:32.006,bwc_clicks.clips.wav,452.005514,452.007083,OBS-827.1.20230527T012059Z.wav,1685150459.127432,28.016434,-16.027850,596.478974,48.475412,-4.000000,1.489621,26.139554,117,725.000000,206,576,1685150459.127835,1685150459.128557,88.814643,7.842490,42.000000,44.815230,38.400000,6.400000,31.200000,18.000000,23.342021,1.919938,512000.000000,88.814643,0.000000,0.985203,0.014797,0.000000,0.000000,0.000000,0.000000,0.000000,0.000000,0.977656,0.068318,27-05-2023,07:32.006,07:32.006
68,0.129003,0.130825,BWC-037-68@07:32.077,bwc_clicks.clips.wav,452.077472,452.079294,OBS-827.1.20230527T012059Z.wav,1685150459.129003,28.016434,-16.027850,596.478714,48.475356,-4.000000,1.489740,26.139548,117,699.000000,230,587,1685150459.129452,1685150459.130149,80.743561,6.074850,40.800000,44.510948,35.600000,8.800000,27.200000,21.600000,25.589275,1.739438,512000.000000,80.743561,0.000000,0.981993,0.018007,0.000000,0.000000,0.000000,0.000000,0.000000,0.000000,0.974263,0.066049,27-05-2023,07:32.077,07:32.077
69,0.130827,0.132827,BWC-037-69@07:32.149,bwc_clicks.clips.wav,452.149000,452.151000,OBS-827.1.20230527T012059Z.wav,1685150459.130827,28.016434,-16.027850,596.478414,48.475290,-4.000000,1.489877,26.139542,117,1115.000000,240,810,1685150459.131296,1685150459.132409,86.148017,5.926911,39.600000,44.828365,30.400000,13.200000,25.600000,24.000000,29.899722,1.499290,512000.000000,86.148017,0.006886,0.982414,0.010700,0.000000,0.000000,0.000000,0.000000,0.000000,0.000000,0.991732,0.111364,27-05-2023,07:32.149,07:32.149
70,0.132829,0.134819,BWC-037-70@07:32.219,bwc_clicks.clips.wav,452.218586,452.220576,OBS-827.1.20230527T012059Z.wav,1685150459.132829,28.016434,-16.027850,596.478083,48.475218,-4.000000,1.490029,26.139535,117,355.000000,664,845,1685150459.134125,1685150459.134479,14.558339,-8.220619,18.400000,77.655076,16.400000,15.600000,10.400000,174.800000,64.736746,1.199552,512000.000000,14.558339,0.309695,0.366581,0.113320,0.007479,0.086268,0.026268,0.000000,0.090388,0.000000,0.512512,1.515116,27-05-2023,07:32.219,07:32.219
71,0.134821,0.136783,BWC-037-71@07:32.289,bwc_clicks.clips.wav,452.288667,452.290629,OBS-827.1.20230527T012059Z.wav,1685150459.134821,28.016434,-16.027850,596.477755,48.475146,-4.000000,1.490179,26.139528,117,125.000000,942,1005,1685150459.136661,1685150459.136784,11.776770,-0.828383,18.800000,36.078580,12.800000,12.000000,8.000000,44.400000,40.179184,0.897942,512000.000000,11.776770,0.720688,0.250986,0.028326,0.000000,0.000000,0.000000,0.000000,0.000000,0.000000,0.650528,-0.118503,27-05-2023,07:32.289,07:32.289
72,0.136785,0.138822,BWC-037-72@07:32.360,bwc_clicks.clips.wav,452.360392,452.362429,OBS-827.1.20230527T012059Z.wav,1685150459.136785,28.016434,-16.027850,596.477431,48.475076,-4.000000,1.490327,26.139521,117,2039.000000,NaN,NaN,NaN,NaN,100.000000,-0.973937,35.200000,58.562480,34.400000,9.600000,19.200000,37.200000,45.042011,1.300175,512000.000000,100.000000,0.055487,0.813118,0.092653,0.003865,0.012616,0.005758,0.013986,0.002516,0.000000,0.995117,0.201163,27-05-2023,07:32.360,07:32.360
73,0.138824,0.140767,BWC-037-73@07:32.431,bwc_clicks.clips.wav,452.431407,452.433350,OBS-827.1.20230527T012059Z.wav,1685150459.138824,28.016434,-16.027850,596.477094,48.475002,-4.000000,1.490481,26.139514,117,617.000000,244,559,1685150459.139300,1685150459.139915,68.113706,3.710821,40.800000,50.219830,36.000000,7.600000,27.600000,19.200000,36.037787,1.393533,512000.000000,68.113706,0.015460,0.980570,0.003970,0.000000,0.000000,0.000000,0.000000,0.000000,0.000000,0.953265,0.055219,27-05-2023,07:32.431,07:32.431
74,0.140769,0.142769,BWC-037-74@07:32.501,bwc_clicks.clips.wav,452.501000,452.503000,OBS-827.1.20230527T012059Z.wav,1685150459.140769,28.016434,-16.027850,596.476773,48.474932,-4.000000,1.490628,26.139507,117,709.000000,239,601,1685150459.141236,1685150459.141943,69.907429,3.818907,41.200000,47.377979,34.800000,8.400000,28.000000,21.200000,32.639308,1.451562,512000.000000,69.907429,0.000000,0.988220,0.011780,0.000000,0.000000,0.000000,0.000000,0.000000,0.000000,0.972118,0.064463,27-05-2023,07:32.501,07:32.501
75,0.142771,0.144584,BWC-037-75@07:32.570,bwc_clicks.clips.wav,452.569755,452.571568,OBS-827.1.20230527T012059Z.wav,1685150459.142771,28.016434,-16.027850,596.476443,48.474860,-4.000000,1.490779,26.139500,117,721.000000,115,483,1685150459.142995,1685150459.143714,74.260560,3.744605,39.200000,49.775197,35.600000,8.800000,29.200000,20.400000,34.717309,1.433729,512000.000000,74.260560,0.003177,0.985967,0.010856,0.000000,0.000000,0.000000,0.000000,0.000000,0.000000,0.972210,0.064411,27-05-2023,07:32.570,07:32.570
76,0.144585,0.146585,BWC-037-76@07:32.638,bwc_clicks.clips.wav,452.638000,452.640000,OBS-827.1.20230527T012059Z.wav,1685150459.144586,28.016434,-16.027850,596.476143,48.474795,-4.000000,1.490916,26.139494,117,910.000000,232,697,1685150459.145039,1685150459.145947,79.930042,4.587602,42.400000,47.402355,34.400000,10.000000,28.800000,24.000000,28.901978,1.640108,512000.000000,79.930042,0.000000,0.944715,0.055285,0.000000,0.000000,0.000000,0.000000,0.000000,0.000000,0.987923,0.080809,27-05-2023,07:32.638,07:32.638
77,0.146587,0.148203,BWC-037-77@07:32.706,bwc_clicks.clips.wav,452.705554,452.707170,OBS-827.1.20230527T012059Z.wav,1685150459.146587,28.016434,-16.027850,596.475813,48.474723,-4.000000,1.491067,26.139487,117,617.000000,112,427,1685150459.146806,1685150459.147421,84.696230,4.573148,32.400000,36.614370,28.400000,10.400000,18.800000,23.600000,23.000528,1.591893,512000.000000,84.696230,0.116291,0.883709,0.000000,0.000000,0.000000,0.000000,0.000000,0.000000,0.000000,0.931941,0.049896,27-05-2023,07:32.706,07:32.706
78,0.148205,0.150205,BWC-037-78@07:32.772,bwc_clicks.clips.wav,452.772000,452.774000,OBS-827.1.20230527T012059Z.wav,1685150459.148205,28.016434,-16.027850,596.475546,48.474665,-4.000000,1.491189,26.139481,117,854.000000,205,641,1685150459.148606,1685150459.149457,76.175534,3.947222,41.600000,46.429503,39.600000,3.200000,30.000000,21.600000,30.026771,1.546270,512000.000000,76.175534,0.009391,0.960403,0.030206,0.000000,0.000000,0.000000,0.000000,0.000000,0.000000,0.984660,0.075110,27-05-2023,07:32.772,07:32.772
79,0.150207,0.152207,BWC-037-79@07:32.836,bwc_clicks.clips.wav,452.836000,452.838000,OBS-827.1.20230527T012059Z.wav,1685150459.150208,28.016434,-16.027850,596.475216,48.474593,-4.000000,1.491341,26.139474,117,2002.000000,NaN,NaN,NaN,NaN,100.000000,-2.600631,39.600000,58.599722,34.800000,16.400000,13.200000,48.400000,42.372701,1.382959,512000.000000,100.000000,0.018422,0.720524,0.220523,0.006536,0.015248,0.000000,0.009195,0.009552,0.000000,0.996451,0.182015,27-05-2023,07:32.836,07:32.836
80,0.152209,0.154218,BWC-037-80@07:32.898,bwc_clicks.clips.wav,452.898175,452.900184,OBS-827.1.20230527T012059Z.wav,1685150459.152209,28.016434,-16.027850,596.474885,48.474520,-4.000000,1.491492,26.139467,117,900.000000,212,672,1685150459.152623,1685150459.153522,76.476424,3.665128,35.200000,46.517936,29.200000,13.600000,16.800000,34.000000,34.081295,1.364911,512000.000000,76.476424,0.015542,0.969546,0.009359,0.002745,0.000000,0.002808,0.000000,0.000000,0.000000,0.986750,0.077789,27-05-2023,07:32.898,07:32.898
81,0.154220,0.156220,BWC-037-81@07:32.959,bwc_clicks.clips.wav,452.959000,452.961000,OBS-827.1.20230527T012059Z.wav,1685150459.154220,28.016434,-16.027850,596.474554,48.474448,-4.000000,1.491644,26.139460,117,943.000000,159,641,1685150459.154531,1685150459.155472,70.429384,1.081330,35.200000,53.435142,34.000000,11.600000,16.400000,38.800000,39.069269,1.367703,512000.000000,70.429384,0.030724,0.929061,0.034118,0.006098,0.000000,0.000000,0.000000,0.000000,0.000000,0.988301,0.082786,27-05-2023,07:32.959,07:32.959
82,0.156222,0.157735,BWC-037-82@07:33.020,bwc_clicks.clips.wav,453.019884,453.021397,OBS-827.1.20230527T012059Z.wav,1685150459.156222,28.016434,-16.027850,596.474223,48.474376,-4.000000,1.491795,26.139453,117,945.000000,138,621,1685150459.156492,1685150459.157435,83.058388,1.951456,41.200000,53.814837,34.400000,9.200000,16.800000,33.200000,42.063815,1.279362,512000.000000,83.058388,0.018983,0.948872,0.026603,0.000000,0.000000,0.000000,0.005542,0.000000,0.000000,0.991388,0.080333,27-05-2023,07:33.020,07:33.020
83,0.157737,0.159737,BWC-037-83@07:33.081,bwc_clicks.clips.wav,453.081000,453.083000,OBS-827.1.20230527T012059Z.wav,1685150459.157737,28.016434,-16.027850,596.473973,48.474321,-4.000000,1.491909,26.139448,117,590.000000,230,531,1685150459.158186,1685150459.158774,58.533816,2.054732,31.200000,45.866234,28.800000,9.200000,26.400000,16.400000,38.592557,1.188474,512000.000000,58.533816,0.000000,1.000000,0.000000,0.000000,0.000000,0.000000,0.000000,0.000000,0.000000,0.961582,0.056913,27-05-2023,07:33.081,07:33.081
84,0.159739,0.161739,BWC-037-84@07:33.140,bwc_clicks.clips.wav,453.140000,453.142000,OBS-827.1.20230527T012059Z.wav,1685150459.159739,28.016434,-16.027850,596.473643,48.474249,-4.000000,1.492060,26.139441,117,961.000000,222,713,1685150459.160173,1685150459.161132,75.352617,2.936588,39.600000,47.768148,30.000000,13.600000,10.400000,39.200000,36.752821,1.299714,512000.000000,75.352617,0.029790,0.961545,0.003111,0.000000,0.005555,0.000000,0.000000,0.000000,0.000000,0.984928,0.083364,27-05-2023,07:33.140,07:33.140
85,0.161741,0.163741,BWC-037-85@07:33.200,bwc_clicks.clips.wav,453.200000,453.202000,OBS-827.1.20230527T012059Z.wav,1685150459.161741,28.016434,-16.027850,596.473313,48.474177,-4.000000,1.492211,26.139434,117,2002.000000,NaN,NaN,NaN,NaN,100.000000,0.777509,40.800000,51.337999,31.200000,12.000000,10.800000,49.200000,39.296224,1.306436,512000.000000,100.000000,0.066150,0.855868,0.067583,0.003990,0.000000,0.003832,0.002577,0.000000,0.000000,0.996272,0.174948,27-05-2023,07:33.200,07:33.200
86,0.163743,0.165368,BWC-037-86@07:33.260,bwc_clicks.clips.wav,453.259771,453.261396,OBS-827.1.20230527T012059Z.wav,1685150459.163743,28.016434,-16.027850,596.472982,48.474105,-4.000000,1.492363,26.139427,117,801.000000,156,565,1685150459.164048,1685150459.164846,76.837285,2.500289,42.000000,47.545799,35.200000,10.000000,18.800000,33.200000,31.939110,1.488639,512000.000000,76.837285,0.029854,0.949466,0.020680,0.000000,0.000000,0.000000,0.000000,0.000000,0.000000,0.983267,0.070193,27-05-2023,07:33.260,07:33.260
87,0.165370,0.167015,BWC-037-87@07:33.319,bwc_clicks.clips.wav,453.318817,453.320462,OBS-827.1.20230527T012059Z.wav,1685150459.165370,28.016434,-16.027850,596.472714,48.474047,-4.000000,1.492485,26.139421,117,762.000000,239,628,1685150459.165837,1685150459.166597,75.316732,2.274258,41.600000,53.820906,38.400000,7.600000,35.600000,20.000000,34.921589,1.541193,512000.000000,75.316732,0.015867,0.907072,0.077061,0.000000,0.000000,0.000000,0.000000,0.000000,0.000000,0.962942,0.061882,27-05-2023,07:33.319,07:33.319
88,0.167017,0.169017,BWC-037-88@07:33.435,bwc_clicks.clips.wav,453.435000,453.437000,OBS-827.1.20230527T012059Z.wav,1685150459.167017,28.016434,-16.027850,596.472442,48.473987,-4.000000,1.492610,26.139415,117,2002.000000,NaN,NaN,NaN,NaN,100.000000,-0.672757,40.000000,57.059972,29.200000,23.600000,15.200000,128.000000,44.198065,1.291006,512000.000000,100.000000,0.104703,0.677673,0.187118,0.004285,0.013395,0.012826,0.000000,0.000000,0.000000,0.996752,0.170675,27-05-2023,07:33.435,07:33.435
89,0.169019,0.171019,BWC-037-89@07:33.494,bwc_clicks.clips.wav,453.494000,453.496000,OBS-827.1.20230527T012059Z.wav,1685150459.169019,28.016434,-16.027850,596.472112,48.473915,-4.000000,1.492761,26.139408,117,2002.000000,NaN,NaN,NaN,NaN,100.000000,-1.964626,34.400000,54.346220,27.200000,14.800000,12.800000,52.800000,45.572072,1.192533,512000.000000,100.000000,0.097892,0.816924,0.060274,0.000000,0.004273,0.004482,0.012178,0.003977,0.000000,0.997035,0.166147,27-05-2023,07:33.494,07:33.494
90,0.171021,0.173021,BWC-037-90@07:33.553,bwc_clicks.clips.wav,453.553000,453.555000,OBS-827.1.20230527T012059Z.wav,1685150459.171021,28.016434,-16.027850,596.471782,48.473843,-4.000000,1.492912,26.139401,117,2002.000000,NaN,NaN,NaN,NaN,100.000000,-0.191724,40.000000,56.046232,27.600000,15.200000,13.200000,144.400000,43.914192,1.276267,512000.000000,100.000000,0.093909,0.767402,0.099907,0.017007,0.007778,0.006690,0.007307,0.000000,0.000000,0.997034,0.170033,27-05-2023,07:33.553,07:33.553
91,0.173023,0.175023,BWC-037-91@07:33.610,bwc_clicks.clips.wav,453.610000,453.612000,OBS-827.1.20230527T012059Z.wav,1685150459.173023,28.016434,-16.027850,596.471451,48.473771,-4.000000,1.493063,26.139394,117,994.000000,211,719,1685150459.173435,1685150459.174427,72.483227,1.139023,39.600000,54.918533,34.400000,11.600000,14.400000,38.000000,41.926612,1.309873,512000.000000,72.483227,0.042486,0.897144,0.048459,0.003100,0.008812,0.000000,0.000000,0.000000,0.000000,0.990366,0.079131,27-05-2023,07:33.610,07:33.610
92,0.175025,0.177025,BWC-037-92@07:33.667,bwc_clicks.clips.wav,453.667000,453.669000,OBS-827.1.20230527T012059Z.wav,1685150459.175025,28.016434,-16.027850,596.471121,48.473699,-4.000000,1.493214,26.139387,117,217.000000,268,378,1685150459.175548,1685150459.175763,41.718955,6.449986,18.400000,26.762923,14.400000,8.000000,10.800000,36.000000,23.228771,1.152145,512000.000000,41.718955,0.741422,0.248185,0.010393,0.000000,0.000000,0.000000,0.000000,0.000000,0.000000,0.482329,0.033356,27-05-2023,07:33.667,07:33.667
93,0.177027,0.179027,BWC-037-93@07:33.831,bwc_clicks.clips.wav,453.831000,453.833000,OBS-827.1.20230527T012059Z.wav,1685150459.177027,28.016434,-16.027850,596.470791,48.473627,-4.000000,1.493366,26.139380,117,303.000000,303,457,1685150459.177619,1685150459.177919,26.999522,-1.529169,42.000000,63.370818,39.200000,5.200000,32.400000,25.200000,44.812203,1.414142,512000.000000,26.999522,0.012208,0.844648,0.085429,0.000000,0.019399,0.038315,0.000000,0.000000,0.000000,0.547723,0.060506,27-05-2023,07:33.831,07:33.831
94,0.179029,0.181298,BWC-037-94@07:33.885,bwc_clicks.clips.wav,453.884731,453.887000,OBS-827.1.20230527T012059Z.wav,1685150459.179029,28.016434,-16.027850,596.470460,48.473555,-4.000000,1.493517,26.139373,117,2270.000000,NaN,NaN,NaN,NaN,100.000000,-2.613506,34.400000,69.592785,34.000000,16.800000,10.400000,139.200000,52.660147,1.321546,512000.000000,100.000000,0.053732,0.646316,0.142366,0.089737,0.006515,0.038167,0.019500,0.003667,0.000000,0.997741,0.178147,27-05-2023,07:33.885,07:33.885
95,0.181300,0.183390,BWC-037-95@07:33.941,bwc_clicks.clips.wav,453.940910,453.943000,OBS-827.1.20230527T012059Z.wav,1685150459.181300,28.016434,-16.027850,596.470086,48.473473,-4.000000,1.493688,26.139365,117,2092.000000,NaN,NaN,NaN,NaN,100.000000,-8.091830,16.800000,73.171482,16.400000,3.600000,11.200000,172.400000,61.452908,1.190692,512000.000000,100.000000,0.402841,0.207110,0.175683,0.050374,0.064452,0.029057,0.045134,0.025349,0.000000,0.739785,1.022735,27-05-2023,07:33.941,07:33.941
96,0.183392,0.185045,BWC-037-96@07:33.996,bwc_clicks.clips.wav,453.995678,453.997331,OBS-827.1.20230527T012059Z.wav,1685150459.183392,28.016434,-16.027850,596.469740,48.473398,-4.000000,1.493846,26.139358,117,295.000000,94,244,1685150459.183575,1685150459.183868,26.055396,-1.052405,31.200000,60.165349,28.000000,6.400000,12.400000,24.800000,54.287630,1.108270,512000.000000,26.055396,0.055239,0.818302,0.068188,0.000000,0.000000,0.000000,0.027973,0.030299,0.000000,0.315357,0.012169,27-05-2023,07:33.996,07:33.996
97,0.185047,0.187047,BWC-037-97@07:34.866,bwc_clicks.clips.wav,454.866000,454.868000,OBS-827.1.20230527T012059Z.wav,1685150459.185046,28.016434,-16.027850,596.469467,48.473338,-4.000000,1.493971,26.139352,117,2002.000000,NaN,NaN,NaN,NaN,100.000000,-0.884050,32.800000,55.956991,25.200000,17.600000,10.400000,144.800000,47.612682,1.175254,512000.000000,100.000000,0.082042,0.845406,0.027994,0.010376,0.023450,0.005851,0.003585,0.001296,0.000000,0.996403,0.147064,27-05-2023,07:34.866,07:34.866
98,0.187048,0.189038,BWC-037-98@07:34.929,bwc_clicks.clips.wav,454.928812,454.930802,OBS-827.1.20230527T012059Z.wav,1685150459.187048,28.016434,-16.027850,596.469137,48.473266,-4.000000,1.494122,26.139345,117,1992.000000,NaN,NaN,NaN,NaN,100.000000,-5.351811,44.400000,67.092614,40.400000,4.400000,12.000000,132.400000,50.936068,1.317193,512000.000000,100.000000,0.111343,0.585238,0.173442,0.045061,0.043523,0.024476,0.009806,0.007111,0.000000,0.992843,0.158521,27-05-2023,07:34.929,07:34.929
99,0.189040,0.190404,BWC-037-99@07:34.988,bwc_clicks.clips.wav,454.987840,454.989204,OBS-827.1.20230527T012059Z.wav,1685150459.189040,28.016434,-16.027850,596.468808,48.473195,-4.000000,1.494273,26.139338,117,619.000000,98,414,1685150459.189232,1685150459.189849,68.874944,1.375478,34.000000,47.496143,28.800000,9.200000,26.000000,16.000000,38.651231,1.228839,512000.000000,68.874944,0.008776,0.977951,0.000000,0.000000,0.009494,0.003778,0.000000,0.000000,0.000000,0.965431,0.060030,27-05-2023,07:34.988,07:34.988
100,0.190406,0.192013,BWC-037-100@07:35.043,bwc_clicks.clips.wav,455.042626,455.044233,OBS-827.1.20230527T012059Z.wav,1685150459.190406,28.016434,-16.027850,596.468583,48.473145,-4.000000,1.494376,26.139334,117,498.000000,239,493,1685150459.190873,1685150459.191369,56.894159,0.653547,38.000000,57.322471,34.800000,6.400000,30.800000,12.000000,42.689062,1.342791,512000.000000,56.894159,0.000000,0.894299,0.071899,0.028731,0.000000,0.000000,0.005071,0.000000,0.000000,0.915578,0.036212,27-05-2023,07:35.043,07:35.043
101,0.192015,0.193686,BWC-037-101@07:35.094,bwc_clicks.clips.wav,455.094329,455.096000,OBS-827.1.20230527T012059Z.wav,1685150459.192015,28.016434,-16.027850,596.468317,48.473087,-4.000000,1.494497,26.139328,117,1672.000000,NaN,NaN,NaN,NaN,100.000000,-2.925543,51.200000,61.009219,34.400000,17.200000,11.600000,163.600000,49.391389,1.235220,512000.000000,100.000000,0.115196,0.676357,0.148646,0.015268,0.013405,0.006537,0.015678,0.008914,0.000000,0.991271,0.135941,27-05-2023,07:35.094,07:35.094
102,0.193688,0.195622,BWC-037-102@07:35.144,bwc_clicks.clips.wav,455.144370,455.146304,OBS-827.1.20230527T012059Z.wav,1685150459.193688,28.016434,-16.027850,596.468041,48.473027,-4.000000,1.494623,26.139322,117,414.000000,168,379,1685150459.194016,1685150459.194429,45.824606,2.604998,32.000000,40.042728,29.200000,7.200000,14.800000,25.600000,34.028094,1.176755,512000.000000,45.824606,0.155891,0.844109,0.000000,0.000000,0.000000,0.000000,0.000000,0.000000,0.000000,0.752580,0.031933,27-05-2023,07:35.144,07:35.144
103,0.195624,0.197624,BWC-037-103@07:35.190,bwc_clicks.clips.wav,455.190000,455.192000,OBS-827.1.20230527T012059Z.wav,1685150459.195624,28.016434,-16.027850,596.467722,48.472958,-4.000000,1.494770,26.139315,117,777.000000,324,721,1685150459.196257,1685150459.197032,61.238244,1.246205,34.000000,45.710581,31.200000,9.200000,14.000000,30.400000,38.162504,1.197788,512000.000000,61.238244,0.108909,0.883685,0.000000,0.000000,0.007407,0.000000,0.000000,0.000000,0.000000,0.974345,0.058624,27-05-2023,07:35.190,07:35.190
104,0.197626,0.199626,BWC-037-104@07:35.235,bwc_clicks.clips.wav,455.235000,455.237000,OBS-827.1.20230527T012059Z.wav,1685150459.197626,28.016434,-16.027850,596.467392,48.472885,-4.000000,1.494921,26.139308,117,559.000000,123,408,1685150459.197866,1685150459.198423,58.731333,1.941584,35.600000,46.127821,28.000000,9.200000,11.200000,30.800000,41.442213,1.113064,512000.000000,58.731333,0.251115,0.722411,0.000000,0.026475,0.000000,0.000000,0.000000,0.000000,0.000000,0.352038,0.054663,27-05-2023,07:35.235,07:35.235
105,0.199628,0.201506,BWC-037-105@07:35.319,bwc_clicks.clips.wav,455.318828,455.320706,OBS-827.1.20230527T012059Z.wav,1685150459.199628,28.016434,-16.027850,596.467061,48.472813,-4.000000,1.495072,26.139301,117,1881.000000,NaN,NaN,NaN,NaN,100.000000,-4.773389,36.800000,69.382473,17.600000,35.600000,10.400000,183.200000,54.675518,1.268986,512000.000000,100.000000,0.125975,0.618108,0.114074,0.009085,0.034382,0.049731,0.034489,0.014156,0.000000,0.997789,0.148154,27-05-2023,07:35.319,07:35.319
106,0.201508,0.203302,BWC-037-106@07:35.359,bwc_clicks.clips.wav,455.358554,455.360348,OBS-827.1.20230527T012059Z.wav,1685150459.201508,28.016434,-16.027849,596.466751,48.472746,-4.000000,1.495214,26.139295,117,988.000000,290,795,1685150459.202075,1685150459.203061,88.231294,6.801531,19.600000,32.544628,11.200000,16.800000,10.000000,34.400000,28.121328,1.157293,512000.000000,88.231294,0.465999,0.534001,0.000000,0.000000,0.000000,0.000000,0.000000,0.000000,0.000000,0.641226,0.047912,27-05-2023,07:35.359,07:35.359
107,0.203304,0.205304,BWC-037-107@07:35.398,bwc_clicks.clips.wav,455.398000,455.400000,OBS-827.1.20230527T012059Z.wav,1685150459.203304,28.016434,-16.027849,596.466455,48.472681,-4.000000,1.495349,26.139288,117,2002.000000,NaN,NaN,NaN,NaN,100.000000,-1.596743,35.200000,66.121481,30.800000,19.600000,14.400000,160.800000,50.653995,1.305356,512000.000000,100.000000,0.068171,0.660566,0.091217,0.062554,0.058562,0.027697,0.025303,0.005930,0.000000,0.993701,0.159251,27-05-2023,07:35.398,07:35.398
108,0.205306,0.207156,BWC-037-108@07:35.436,bwc_clicks.clips.wav,455.435548,455.437398,OBS-827.1.20230527T012059Z.wav,1685150459.205306,28.016434,-16.027849,596.466125,48.472609,-4.000000,1.495501,26.139281,117,1852.000000,NaN,NaN,NaN,NaN,100.000000,-3.827971,31.200000,73.165010,31.200000,18.800000,12.400000,174.000000,57.609526,1.270016,512000.000000,100.000000,0.088767,0.632762,0.128778,0.011518,0.042609,0.032071,0.052291,0.008328,0.002878,0.995150,0.140592,27-05-2023,07:35.436,07:35.436
109,0.207158,0.209158,BWC-037-109@07:35.508,bwc_clicks.clips.wav,455.508000,455.510000,OBS-827.1.20230527T012059Z.wav,1685150459.207158,28.016434,-16.027849,596.465819,48.472542,-4.000000,1.495640,26.139275,117,2002.000000,NaN,NaN,NaN,NaN,100.000000,-3.587668,43.600000,79.179220,20.400000,29.600000,12.400000,188.000000,58.535287,1.352675,512000.000000,100.000000,0.088987,0.548801,0.089623,0.058632,0.064893,0.039015,0.050247,0.052246,0.007555,0.996516,0.153517,27-05-2023,07:35.508,07:35.508
110,0.209160,0.210562,BWC-037-110@07:35.543,bwc_clicks.clips.wav,455.543000,455.544402,OBS-827.1.20230527T012059Z.wav,1685150459.209160,28.016434,-16.027849,596.465489,48.472470,-4.000000,1.495792,26.139268,117,1404.000000,NaN,NaN,NaN,NaN,100.000000,-3.224170,39.200000,65.904389,30.400000,16.400000,12.000000,180.000000,51.944054,1.268757,512000.000000,100.000000,0.106293,0.713652,0.052267,0.040922,0.032669,0.021964,0.012272,0.019961,0.000000,0.993365,0.110999,27-05-2023,07:35.543,07:35.543
111,0.210564,0.212629,BWC-037-111@07:35.578,bwc_clicks.clips.wav,455.577606,455.579671,OBS-827.1.20230527T012059Z.wav,1685150459.210564,28.016434,-16.027849,596.465257,48.472420,-4.000000,1.495898,26.139263,117,2066.000000,NaN,NaN,NaN,NaN,100.000000,-4.920270,28.000000,76.899552,15.200000,24.000000,8.400000,182.800000,60.755194,1.265728,512000.000000,100.000000,0.244985,0.359113,0.140021,0.054708,0.052545,0.036695,0.099423,0.012511,0.000000,0.514922,0.262287,27-05-2023,07:35.578,07:35.578
112,0.212631,0.214631,BWC-037-112@07:35.611,bwc_clicks.clips.wav,455.611000,455.613000,OBS-827.1.20230527T012059Z.wav,1685150459.212631,28.016434,-16.027849,596.464916,48.472345,-4.000000,1.496054,26.139256,117,469.000000,204,443,1685150459.213029,1685150459.213496,40.681673,-0.185529,36.800000,63.614666,30.800000,8.800000,11.600000,164.400000,50.633200,1.256382,512000.000000,40.681673,0.068696,0.725657,0.064707,0.043154,0.037516,0.028951,0.006158,0.025160,0.000000,0.865508,0.050578,27-05-2023,07:35.611,07:35.611
113,0.214633,0.216633,BWC-037-113@07:35.645,bwc_clicks.clips.wav,455.645000,455.647000,OBS-827.1.20230527T012059Z.wav,1685150459.214633,28.016434,-16.027849,596.464586,48.472273,-4.000000,1.496205,26.139249,117,2002.000000,NaN,NaN,NaN,NaN,100.000000,-5.645507,17.200000,81.498561,17.200000,125.600000,8.400000,192.000000,57.678236,1.412986,512000.000000,100.000000,0.110216,0.414600,0.164389,0.078551,0.096821,0.091308,0.040016,0.002706,0.001393,0.997634,0.158819,27-05-2023,07:35.645,07:35.645
114,0.216635,0.218559,BWC-037-114@07:35.678,bwc_clicks.clips.wav,455.678481,455.680405,OBS-827.1.20230527T012059Z.wav,1685150459.216635,28.016434,-16.027849,596.464255,48.472201,-4.000000,1.496356,26.139242,117,1926.000000,NaN,NaN,NaN,NaN,100.000000,-2.768440,35.200000,70.669768,17.200000,89.600000,9.600000,179.600000,55.310830,1.277684,512000.000000,100.000000,0.127002,0.576630,0.074688,0.070749,0.050442,0.034362,0.054880,0.009723,0.001524,0.996005,0.157248,27-05-2023,07:35.678,07:35.678
115,0.218561,0.220401,BWC-037-115@07:35.711,bwc_clicks.clips.wav,455.710826,455.712666,OBS-827.1.20230527T012059Z.wav,1685150459.218561,28.016434,-16.027849,596.463937,48.472132,-4.000000,1.496501,26.139235,117,752.000000,227,611,1685150459.219004,1685150459.219754,52.862036,-2.156927,39.600000,61.635732,35.200000,6.000000,12.000000,45.200000,50.075099,1.230866,512000.000000,52.862036,0.083866,0.791579,0.032905,0.029049,0.034843,0.000000,0.024258,0.003499,0.000000,0.959033,0.050065,27-05-2023,07:35.711,07:35.711
116,0.220403,0.222402,BWC-037-116@07:35.743,bwc_clicks.clips.wav,455.742517,455.744516,OBS-827.1.20230527T012059Z.wav,1685150459.220403,28.016434,-16.027849,596.463634,48.472066,-4.000000,1.496640,26.139229,117,229.000000,259,375,1685150459.220909,1685150459.221135,19.110885,-0.979079,32.800000,60.547575,29.600000,6.800000,26.400000,50.400000,49.953085,1.212089,512000.000000,19.110885,0.000000,0.854376,0.073194,0.046635,0.025796,0.000000,0.000000,0.000000,0.000000,0.399367,0.032071,27-05-2023,07:35.743,07:35.743
